$GPTXT,01,01,07,Pipecat*12
$GPGGA,164100,3511.33136,N,10643.48435,W,1,8,0.9,1654.0,M,46.9,M,0,2*50
$GPRMC,164100,A,3511.33136,N,10643.48435,W,0.00,0.00,311216,003.1,W*7C
$GPGLL,3511.33136,N,10643.48435,W,164100,A*36
$HCHDG,129.5,,,8.7,E*29
$PASHR,164100190,138.24,T,+32.56,+48.49,+00.00,3.141,3.141,35.000,1,0*17
$GPGGA,164106,3511.47532,N,10643.61191,W,1,8,0.9,1660.3,M,46.9,M,0,2*51
$GPRMC,164106,A,3511.47532,N,10643.61191,W,0.00,2.5,311216,003.1,W*4E
$GPGLL,3511.47532,N,10643.61191,W,164106,A*33
$HCHDG,122.8,,,8.7,E*2F
$PASHR,164106000,131.54,T,+1.47,+66.70,+00.00,3.141,3.141,35.000,1,0*21
$GPGGA,164113,3511.48235,N,10643.60516,W,1,8,0.9,1660.6,M,46.9,M,0,2*55
$GPRMC,164113,A,3511.48235,N,10643.60516,W,10.59,26.0,311216,003.1,W*41
$GPGLL,3511.48235,N,10643.60516,W,164113,A*32
$HCHDG,107.5,,,8.7,E*25
$PASHR,164113000,116.23,T,+2.95,+73.72,+00.00,3.141,3.141,25.000,1,0*2B
$GPGGA,164118,3511.50373,N,10643.59914,W,1,8,0.9,1658.6,M,46.9,M,0,2*5B
$GPRMC,164118,A,3511.50373,N,10643.59914,W,17.96,6.0,311216,003.1,W*72
$GPGLL,3511.50373,N,10643.59914,W,164118,A*37
$HCHDG,86.1,,,8.7,E*19
$PASHR,164118000,94.83,T,+5.80,+64.76,+00.00,3.141,3.141,25.000,1,0*10
$GPGGA,164124,3511.52041,N,10643.59638,W,1,8,0.9,1658.2,M,46.9,M,0,2*51
$GPRMC,164124,A,3511.52041,N,10643.59638,W,4.39,20.4,311216,003.1,W*7B
$GPGLL,3511.52041,N,10643.59638,W,164124,A*39
$HCHDG,126.0,,,8.7,E*23
$PASHR,164124000,134.68,T,-17.92,+67.70,+00.00,3.141,3.141,25.000,1,0*12
$GPGGA,164130,3511.52279,N,10643.56928,W,1,8,0.9,1657.7,M,46.9,M,0,2*56
$GPRMC,164130,A,3511.52279,N,10643.56928,W,24.14,88.8,311216,003.1,W*45
$GPGLL,3511.52279,N,10643.56928,W,164130,A*34
$HCHDG,169.0,,,8.7,E*28
$PASHR,164130000,177.71,T,+3.47,+74.60,+00.00,3.141,3.141,25.000,1,0*20
$GPGGA,164135,3511.52322,N,10643.51504,W,1,8,0.9,1656.8,M,46.9,M,0,2*57
$GPRMC,164135,A,3511.52322,N,10643.51504,W,30.65,89.6,311216,003.1,W*46
$GPGLL,3511.52322,N,10643.51504,W,164135,A*3B
$HCHDG,169.0,,,8.7,E*28
$PASHR,164135000,177.71,T,+1.83,+68.70,+00.00,3.141,3.141,25.000,1,0*23
$GPGGA,164141,3511.52368,N,10643.44751,W,1,8,0.9,1652.9,M,46.9,M,0,2*59
$GPRMC,164141,A,3511.52368,N,10643.44751,W,33.59,89.4,311216,003.1,W*43
$GPGLL,3511.52368,N,10643.44751,W,164141,A*30
$HCHDG,169.0,,,8.7,E*28
$PASHR,164141000,177.71,T,+5.27,+66.61,+00.00,3.141,3.141,25.000,1,0*24
$GPGGA,164147,3511.52384,N,10643.38125,W,1,8,0.9,1651.7,M,46.9,M,0,2*5E
$GPRMC,164147,A,3511.52384,N,10643.38125,W,33.28,90.0,311216,003.1,W*43
$GPGLL,3511.52384,N,10643.38125,W,164147,A*3A
$HCHDG,169.0,,,8.7,E*28
$PASHR,164147000,177.71,T,+6.39,+66.43,+00.00,3.141,3.141,25.000,1,0*2E
$GPGGA,164153,3511.52249,N,10643.31306,W,1,8,0.9,1650.8,M,46.9,M,0,2*5F
$GPRMC,164153,A,3511.52249,N,10643.31306,W,32.85,91.4,311216,003.1,W*4F
$GPGLL,3511.52249,N,10643.31306,W,164153,A*35
$HCHDG,169.0,,,8.7,E*28
$PASHR,164153000,177.71,T,+0.82,+67.47,+00.00,3.141,3.141,25.000,1,0*28
$GPGGA,164159,3511.52437,N,10643.24751,W,1,8,0.9,1650.4,M,46.9,M,0,2*54
$GPRMC,164159,A,3511.52437,N,10643.24751,W,34.08,86.4,311216,003.1,W*4D
$GPGLL,3511.52437,N,10643.24751,W,164159,A*32
$HCHDG,166.0,,,8.7,E*27
$PASHR,164159000,174.65,T,+10.28,+67.52,+00.00,3.141,3.141,30.000,1,0*15
$GPGGA,164204,3511.53410,N,10643.18917,W,1,8,0.9,1648.1,M,46.9,M,0,2*54
$GPRMC,164204,A,3511.53410,N,10643.18917,W,34.78,74.5,311216,003.1,W*4A
$GPGLL,3511.53410,N,10643.18917,W,164204,A*3E
$HCHDG,153.9,,,8.7,E*28
$PASHR,164204000,162.55,T,+9.51,+67.02,+00.00,3.141,3.141,35.000,1,0*2C
$GPGGA,164209,3511.55020,N,10643.13327,W,1,8,0.9,1646.0,M,46.9,M,0,2*55
$GPRMC,164209,A,3511.55020,N,10643.13327,W,35.28,64.9,311216,003.1,W*4D
$GPGLL,3511.55020,N,10643.13327,W,164209,A*30
$HCHDG,150.8,,,8.7,E*2A
$PASHR,164209000,159.53,T,+3.27,+65.68,+00.00,3.141,3.141,35.000,1,0*2A
$GPGGA,164215,3511.57243,N,10643.06806,W,1,8,0.9,1643.9,M,46.9,M,0,2*5D
$GPRMC,164215,A,3511.57243,N,10643.06806,W,34.66,67.4,311216,003.1,W*4C
$GPGLL,3511.57243,N,10643.06806,W,164215,A*34
$HCHDG,150.8,,,8.7,E*2A
$PASHR,164215000,159.53,T,+1.06,+67.39,+00.00,3.141,3.141,35.000,1,0*20
$GPGGA,164220,3511.59102,N,10643.01343,W,1,8,0.9,1642.7,M,46.9,M,0,2*51
$GPRMC,164220,A,3511.59102,N,10643.01343,W,34.46,67.5,311216,003.1,W*4C
$GPGLL,3511.59102,N,10643.01343,W,164220,A*37
$HCHDG,150.8,,,8.7,E*2A
$PASHR,164220000,159.53,T,+2.82,+66.64,+00.00,3.141,3.141,35.000,1,0*20
$GPGGA,164226,3511.61488,N,10642.94985,W,1,8,0.9,1641.6,M,46.9,M,0,2*54
$GPRMC,164226,A,3511.61488,N,10642.94985,W,34.10,69.8,311216,003.1,W*4B
$GPGLL,3511.61488,N,10642.94985,W,164226,A*30
$HCHDG,150.8,,,8.7,E*2A
$PASHR,164226000,159.53,T,+2.32,+67.61,+00.00,3.141,3.141,35.000,1,0*29
$GPGGA,164230,3511.62837,N,10642.90515,W,1,8,0.9,1641.1,M,46.9,M,0,2*5E
$GPRMC,164230,A,3511.62837,N,10642.90515,W,34.64,69.8,311216,003.1,W*45
$GPGLL,3511.62837,N,10642.90515,W,164230,A*3D
$HCHDG,150.8,,,8.7,E*2A
$PASHR,164230000,159.53,T,+5.13,+67.45,+00.00,3.141,3.141,35.000,1,0*2C
$GPGGA,164235,3511.64490,N,10642.85036,W,1,8,0.9,1640.9,M,46.9,M,0,2*55
$GPRMC,164235,A,3511.64490,N,10642.85036,W,34.41,69.8,311216,003.1,W*40
$GPGLL,3511.64490,N,10642.85036,W,164235,A*3F
$HCHDG,150.8,,,8.7,E*2A
$PASHR,164235000,159.53,T,+2.73,+66.85,+00.00,3.141,3.141,35.000,1,0*25
$GPGGA,164242,3511.66818,N,10642.77452,W,1,8,0.9,1642.0,M,46.9,M,0,2*5B
$GPRMC,164242,A,3511.66818,N,10642.77452,W,33.88,69.3,311216,003.1,W*4C
$GPGLL,3511.66818,N,10642.77452,W,164242,A*3A
$HCHDG,150.8,,,8.7,E*2A
$PASHR,164242000,159.53,T,+3.78,+68.09,+00.00,3.141,3.141,35.000,1,0*25
$GPGGA,164246,3511.68134,N,10642.73207,W,1,8,0.9,1642.4,M,46.9,M,0,2*50
$GPRMC,164246,A,3511.68134,N,10642.73207,W,33.75,69.5,311216,003.1,W*47
$GPGLL,3511.68134,N,10642.73207,W,164246,A*35
$HCHDG,150.8,,,8.7,E*2A
$PASHR,164246000,159.53,T,+4.70,+66.82,+00.00,3.141,3.141,35.000,1,0*23
$GPGGA,164252,3511.69956,N,10642.66681,W,1,8,0.9,1640.7,M,46.9,M,0,2*57
$GPRMC,164252,A,3511.69956,N,10642.66681,W,34.70,72.0,311216,003.1,W*4C
$GPGLL,3511.69956,N,10642.66681,W,164252,A*33
$HCHDG,153.8,,,8.7,E*29
$PASHR,164252000,162.54,T,+0.23,+67.30,+00.00,3.141,3.141,40.000,1,0*21
$GPGGA,164257,3511.71706,N,10642.61156,W,1,8,0.9,1640.0,M,46.9,M,0,2*5D
$GPRMC,164257,A,3511.71706,N,10642.61156,W,34.81,70.3,311216,003.1,W*4E
$GPGLL,3511.71706,N,10642.61156,W,164257,A*3E
$HCHDG,153.8,,,8.7,E*29
$PASHR,164257000,162.54,T,+6.88,+66.80,+00.00,3.141,3.141,40.000,1,0*29
$GPGGA,164303,3511.73670,N,10642.54384,W,1,8,0.9,1639.2,M,46.9,M,0,2*58
$GPRMC,164303,A,3511.73670,N,10642.54384,W,34.87,69.6,311216,003.1,W*4C
$GPGLL,3511.73670,N,10642.54384,W,164303,A*37
$HCHDG,153.8,,,8.7,E*29
$PASHR,164303000,162.54,T,+3.51,+66.18,+00.00,3.141,3.141,40.000,1,0*29
$GPGGA,164308,3511.75311,N,10642.48937,W,1,8,0.9,1637.6,M,46.9,M,0,2*52
$GPRMC,164308,A,3511.75311,N,10642.48937,W,33.51,69.6,311216,003.1,W*40
$GPGLL,3511.75311,N,10642.48937,W,164308,A*37
$HCHDG,153.8,,,8.7,E*29
$PASHR,164308000,162.54,T,+2.43,+66.36,+00.00,3.141,3.141,40.000,1,0*2C
$GPGGA,164314,3511.77224,N,10642.42603,W,1,8,0.9,1634.6,M,46.9,M,0,2*5B
$GPRMC,164314,A,3511.77224,N,10642.42603,W,33.71,70.0,311216,003.1,W*46
$GPGLL,3511.77224,N,10642.42603,W,164314,A*3D
$HCHDG,153.8,,,8.7,E*29
$PASHR,164314000,162.54,T,+2.34,+66.35,+00.00,3.141,3.141,40.000,1,0*22
$GPGGA,164319,3511.78772,N,10642.37055,W,1,8,0.9,1632.7,M,46.9,M,0,2*5F
$GPRMC,164319,A,3511.78772,N,10642.37055,W,35.38,73.8,311216,003.1,W*45
$GPGLL,3511.78772,N,10642.37055,W,164319,A*3E
$HCHDG,156.9,,,8.7,E*2D
$PASHR,164319000,165.58,T,-4.50,+67.41,+00.00,3.141,3.141,45.000,1,0*21
$GPGGA,164324,3511.79750,N,10642.31610,W,1,8,0.9,1631.7,M,46.9,M,0,2*52
$GPRMC,164324,A,3511.79750,N,10642.31610,W,32.09,79.5,311216,003.1,W*49
$GPGLL,3511.79750,N,10642.31610,W,164324,A*30
$HCHDG,162.9,,,8.7,E*2A
$PASHR,164324000,171.60,T,-3.06,+65.06,+00.00,3.141,3.141,45.000,1,0*24
$GPGGA,164329,3511.80256,N,10642.26473,W,1,8,0.9,1630.7,M,46.9,M,0,2*5A
$GPRMC,164329,A,3511.80256,N,10642.26473,W,28.94,84.7,311216,003.1,W*4F
$GPGLL,3511.80256,N,10642.26473,W,164329,A*39
$HCHDG,168.9,,,8.7,E*20
$PASHR,164329000,177.62,T,+0.52,+65.29,+00.00,3.141,3.141,45.000,1,0*24
$GPGGA,164334,3511.80517,N,10642.22148,W,1,8,0.9,1629.7,M,46.9,M,0,2*55
$GPRMC,164334,A,3511.80517,N,10642.22148,W,18.00,88.2,311216,003.1,W*4F
$GPGLL,3511.80517,N,10642.22148,W,164334,A*3E
$HCHDG,171.9,,,8.7,E*28
$PASHR,164334000,180.64,T,-1.14,+54.64,+00.00,3.141,3.141,50.000,1,0*2C
$GPGGA,164339,3511.80572,N,10642.21108,W,1,8,0.9,1629.1,M,46.9,M,0,2*5A
$GPRMC,164339,A,3511.80572,N,10642.21108,W,0.00,88.6,311216,003.1,W*7B
$GPGLL,3511.80572,N,10642.21108,W,164339,A*37
$HCHDG,171.9,,,8.7,E*28
$PASHR,164339000,180.64,T,+0.35,+64.38,+00.00,3.141,3.141,50.000,1,0*2F
$GPGGA,164344,3511.80501,N,10642.21069,W,1,8,0.9,1629.6,M,46.9,M,0,2*55
$GPRMC,164344,A,3511.80501,N,10642.21069,W,1.19,88.6,311216,003.1,W*7A
$GPGLL,3511.80501,N,10642.21069,W,164344,A*3F
$HCHDG,181.2,,,8.7,E*2C
$PASHR,164344000,189.93,T,-15.17,+78.92,+00.00,3.141,3.141,15.000,1,0*1A
$GPGGA,164350,3511.78847,N,10642.20018,W,1,8,0.9,1630.2,M,46.9,M,0,2*53
$GPRMC,164350,A,3511.78847,N,10642.20018,W,21.23,177.5,311216,003.1,W*79
$GPGLL,3511.78847,N,10642.20018,W,164350,A*35
$HCHDG,268.8,,,8.7,E*22
$PASHR,164350000,277.51,T,-2.74,+79.79,+00.00,3.141,3.141,15.000,1,0*24
$GPGGA,164355,3511.75071,N,10642.20053,W,1,8,0.9,1632.5,M,46.9,M,0,2*5C
$GPRMC,164355,A,3511.75071,N,10642.20053,W,31.92,179.6,311216,003.1,W*75
$GPGLL,3511.75071,N,10642.20053,W,164355,A*3F
$HCHDG,271.8,,,8.7,E*2A
$PASHR,164355000,280.54,T,+6.46,+73.77,+00.00,3.141,3.141,20.000,1,0*2D
$GPGGA,164400,3511.70590,N,10642.20495,W,1,8,0.9,1632.6,M,46.9,M,0,2*59
$GPRMC,164400,A,3511.70590,N,10642.20495,W,33.55,193.0,311216,003.1,W*78
$GPGLL,3511.70590,N,10642.20495,W,164400,A*39
$HCHDG,290.1,,,8.7,E*2C
$PASHR,164400000,298.83,T,-15.49,+68.04,+00.00,3.141,3.141,20.000,1,0*1C
$GPGGA,164406,3511.65531,N,10642.23703,W,1,8,0.9,1631.1,M,46.9,M,0,2*5B
$GPRMC,164406,A,3511.65531,N,10642.23703,W,34.91,220.4,311216,003.1,W*7E
$GPGLL,3511.65531,N,10642.23703,W,164406,A*3F
$HCHDG,311.5,,,8.7,E*20
$PASHR,164406000,320.23,T,-11.53,+68.01,+00.00,3.141,3.141,20.000,1,0*18
$GPGGA,164411,3511.61815,N,10642.27732,W,1,8,0.9,1630.1,M,46.9,M,0,2*55
$GPRMC,164411,A,3511.61815,N,10642.27732,W,34.78,221.8,311216,003.1,W*7B
$GPGLL,3511.61815,N,10642.27732,W,164411,A*30
$HCHDG,311.5,,,8.7,E*20
$PASHR,164411000,320.23,T,+2.83,+66.16,+00.00,3.141,3.141,20.000,1,0*2F
$GPGGA,164417,3511.57544,N,10642.32399,W,1,8,0.9,1630.5,M,46.9,M,0,2*5A
$GPRMC,164417,A,3511.57544,N,10642.32399,W,33.75,221.1,311216,003.1,W*73
$GPGLL,3511.57544,N,10642.32399,W,164417,A*3B
$HCHDG,311.5,,,8.7,E*20
$PASHR,164417000,320.23,T,-3.25,+66.72,+00.00,3.141,3.141,20.000,1,0*20
$GPGGA,164423,3511.53533,N,10642.36858,W,1,8,0.9,1631.0,M,46.9,M,0,2*5F
$GPRMC,164423,A,3511.53533,N,10642.36858,W,32.71,221.8,311216,003.1,W*7E
$GPGLL,3511.53533,N,10642.36858,W,164423,A*3A
$HCHDG,311.5,,,8.7,E*20
$PASHR,164423000,320.23,T,-4.05,+67.17,+00.00,3.141,3.141,20.000,1,0*20
$GPGGA,164428,3511.50221,N,10642.40440,W,1,8,0.9,1631.2,M,46.9,M,0,2*55
$GPRMC,164428,A,3511.50221,N,10642.40440,W,31.67,221.1,311216,003.1,W*7B
$GPGLL,3511.50221,N,10642.40440,W,164428,A*32
$HCHDG,311.5,,,8.7,E*20
$PASHR,164428000,320.23,T,-2.77,+67.20,+00.00,3.141,3.141,20.000,1,0*2C
$GPGGA,164435,3511.45681,N,10642.45423,W,1,8,0.9,1630.0,M,46.9,M,0,2*50
$GPRMC,164435,A,3511.45681,N,10642.45423,W,31.14,221.5,311216,003.1,W*7D
$GPGLL,3511.45681,N,10642.45423,W,164435,A*34
$HCHDG,311.5,,,8.7,E*20
$PASHR,164435000,320.23,T,-3.43,+67.46,+00.00,3.141,3.141,20.000,1,0*26
$GPGGA,164440,3511.42423,N,10642.48824,W,1,8,0.9,1630.7,M,46.9,M,0,2*5E
$GPRMC,164440,A,3511.42423,N,10642.48824,W,31.45,219.0,311216,003.1,W*7E
$GPGLL,3511.42423,N,10642.48824,W,164440,A*3D
$HCHDG,308.5,,,8.7,E*28
$PASHR,164440000,317.22,T,+2.58,+69.34,+00.00,3.141,3.141,30.000,1,0*26
$GPGGA,164446,3511.38273,N,10642.52597,W,1,8,0.9,1631.3,M,46.9,M,0,2*5D
$GPRMC,164446,A,3511.38273,N,10642.52597,W,31.94,216.6,311216,003.1,W*7D
$GPGLL,3511.38273,N,10642.52597,W,164446,A*3B
$HCHDG,305.5,,,8.7,E*25
$PASHR,164446000,314.22,T,-0.09,+69.07,+00.00,3.141,3.141,30.000,1,0*23
$GPGGA,164451,3511.34566,N,10642.55720,W,1,8,0.9,1632.3,M,46.9,M,0,2*5E
$GPRMC,164451,A,3511.34566,N,10642.55720,W,31.16,215.2,311216,003.1,W*70
$GPGLL,3511.34566,N,10642.55720,W,164451,A*3B
$HCHDG,305.5,,,8.7,E*25
$PASHR,164451000,314.22,T,-7.18,+66.64,+00.00,3.141,3.141,30.000,1,0*28
$GPGGA,164456,3511.31190,N,10642.59085,W,1,8,0.9,1632.2,M,46.9,M,0,2*54
$GPRMC,164456,A,3511.31190,N,10642.59085,W,32.27,219.0,311216,003.1,W*74
$GPGLL,3511.31190,N,10642.59085,W,164456,A*30
$HCHDG,308.5,,,8.7,E*28
$PASHR,164456000,317.22,T,-2.26,+68.94,+00.00,3.141,3.141,45.000,1,0*27
$GPGGA,164501,3511.27644,N,10642.62954,W,1,8,0.9,1631.5,M,46.9,M,0,2*57
$GPRMC,164501,A,3511.27644,N,10642.62954,W,35.46,228.2,311216,003.1,W*73
$GPGLL,3511.27644,N,10642.62954,W,164501,A*37
$HCHDG,314.6,,,8.7,E*26
$PASHR,164501000,323.26,T,-9.78,+68.52,+00.00,3.141,3.141,45.000,1,0*2D
$GPGGA,164505,3511.25370,N,10642.66913,W,1,8,0.9,1631.2,M,46.9,M,0,2*53
$GPRMC,164505,A,3511.25370,N,10642.66913,W,35.34,239.8,311216,003.1,W*7F
$GPGLL,3511.25370,N,10642.66913,W,164505,A*34
$HCHDG,329.8,,,8.7,E*26
$PASHR,164505000,338.48,T,-5.67,+67.17,+00.00,3.141,3.141,50.000,1,0*23
$GPGGA,164512,3511.22735,N,10642.74488,W,1,8,0.9,1631.9,M,46.9,M,0,2*50
$GPRMC,164512,A,3511.22735,N,10642.74488,W,34.06,260.2,311216,003.1,W*71
$GPGLL,3511.22735,N,10642.74488,W,164512,A*3C
$HCHDG,345.0,,,8.7,E*24
$PASHR,164512000,353.65,T,-7.07,+68.65,+00.00,3.141,3.141,60.000,1,0*2A
$GPGGA,164516,3511.22331,N,10642.79134,W,1,8,0.9,1633.7,M,46.9,M,0,2*57
$GPRMC,164516,A,3511.22331,N,10642.79134,W,33.82,266.1,311216,003.1,W*74
$GPGLL,3511.22331,N,10642.79134,W,164516,A*37
$HCHDG,357.1,,,8.7,E*26
$PASHR,164516000,5.80,T,-7.21,+70.80,+00.00,3.141,3.141,70.000,1,0*22
$GPGGA,164522,3511.22015,N,10642.86174,W,1,8,0.9,1637.7,M,46.9,M,0,2*55
$GPRMC,164522,A,3511.22015,N,10642.86174,W,34.91,267.1,311216,003.1,W*76
$GPGLL,3511.22015,N,10642.86174,W,164522,A*31
$HCHDG,354.1,,,8.7,E*25
$PASHR,164522000,2.78,T,+4.17,+69.87,+00.00,3.141,3.141,75.000,1,0*2F
$GPGGA,164527,3511.21175,N,10642.91990,W,1,8,0.9,1640.5,M,46.9,M,0,2*52
$GPRMC,164527,A,3511.21175,N,10642.91990,W,34.72,254.3,311216,003.1,W*7C
$GPGLL,3511.21175,N,10642.91990,W,164527,A*34
$HCHDG,341.9,,,8.7,E*29
$PASHR,164527000,350.61,T,+7.13,+67.39,+00.00,3.141,3.141,80.000,1,0*20
$GPGGA,164532,3511.19359,N,10642.97279,W,1,8,0.9,1641.9,M,46.9,M,0,2*56
$GPRMC,164532,A,3511.19359,N,10642.97279,W,34.83,239.8,311216,003.1,W*7B
$GPGLL,3511.19359,N,10642.97279,W,164532,A*3D
$HCHDG,323.7,,,8.7,E*23
$PASHR,164532000,332.44,T,+10.05,+69.82,+00.00,3.141,3.141,85.000,1,0*1D
$GPGGA,164538,3511.15819,N,10643.03000,W,1,8,0.9,1644.5,M,46.9,M,0,2*56
$GPRMC,164538,A,3511.15819,N,10643.03000,W,34.95,230.7,311216,003.1,W*73
$GPGLL,3511.15819,N,10643.03000,W,164538,A*34
$HCHDG,317.7,,,8.7,E*24
$PASHR,164538000,326.36,T,+4.82,+67.53,+00.00,3.141,3.141,89.000,1,0*23
$GPGGA,164543,3511.12810,N,10643.07448,W,1,8,0.9,1645.3,M,46.9,M,0,2*5F
$GPRMC,164543,A,3511.12810,N,10643.07448,W,33.38,230.4,311216,003.1,W*7E
$GPGLL,3511.12810,N,10643.07448,W,164543,A*3A
$HCHDG,317.7,,,8.7,E*24
$PASHR,164543000,326.36,T,+4.09,+66.82,+00.00,3.141,3.141,89.000,1,0*21
$GPGGA,164548,3511.09895,N,10643.11738,W,1,8,0.9,1646.0,M,46.9,M,0,2*50
$GPRMC,164548,A,3511.09895,N,10643.11738,W,33.08,230.4,311216,003.1,W*72
$GPGLL,3511.09895,N,10643.11738,W,164548,A*35
$HCHDG,317.7,,,8.7,E*24
$PASHR,164548000,326.36,T,+3.34,+69.24,+00.00,3.141,3.141,89.000,1,0*20
$GPGGA,164555,3511.05915,N,10643.17528,W,1,8,0.9,1646.3,M,46.9,M,0,2*5F
$GPRMC,164555,A,3511.05915,N,10643.17528,W,27.39,230.0,311216,003.1,W*7D
$GPGLL,3511.05915,N,10643.17528,W,164555,A*39
$HCHDG,320.7,,,8.7,E*20
$PASHR,164555000,329.42,T,+4.14,+60.19,+00.00,3.141,3.141,89.000,1,0*22
$GPGGA,164600,3511.04420,N,10643.19699,W,1,8,0.9,1646.0,M,46.9,M,0,2*52
$GPRMC,164600,A,3511.04420,N,10643.19699,W,5.21,230.0,311216,003.1,W*4A
$GPGLL,3511.04420,N,10643.19699,W,164600,A*37
$HCHDG,320.7,,,8.7,E*20
$PASHR,164600000,329.42,T,+1.01,+55.22,+00.00,3.141,3.141,89.000,1,0*2E
$GPGGA,164605,3511.04353,N,10643.19796,W,1,8,0.9,1646.4,M,46.9,M,0,2*5E
$GPRMC,164605,A,3511.04353,N,10643.19796,W,0.00,230.0,311216,003.1,W*44
$GPGLL,3511.04353,N,10643.19796,W,164605,A*3F
$HCHDG,317.6,,,8.7,E*25
$PASHR,164605000,326.33,T,+2.11,+68.53,+00.00,3.141,3.141,40.000,1,0*2D
$GPGGA,164610,3511.04318,N,10643.19846,W,1,8,0.9,1647.1,M,46.9,M,0,2*53
$GPRMC,164610,A,3511.04318,N,10643.19846,W,2.45,230.0,311216,003.1,W*4E
$GPGLL,3511.04318,N,10643.19846,W,164610,A*36
$HCHDG,327.2,,,8.7,E*22
$PASHR,164610000,335.92,T,-16.17,+78.60,+00.00,3.141,3.141,10.000,1,0*11
$GPGGA,164616,3511.05851,N,10643.22354,W,1,8,0.9,1648.1,M,46.9,M,0,2*5D
$GPRMC,164616,A,3511.05851,N,10643.22354,W,22.68,320.4,311216,003.1,W*76
$GPGLL,3511.05851,N,10643.22354,W,164616,A*37
$HCHDG,49.3,,,8.7,E*18
$PASHR,164616000,57.99,T,-0.05,+78.83,+00.00,3.141,3.141,15.000,1,0*17
$GPGGA,164622,3511.09691,N,10643.26214,W,1,8,0.9,1648.7,M,46.9,M,0,2*53
$GPRMC,164622,A,3511.09691,N,10643.26214,W,33.10,319.9,311216,003.1,W*76
$GPGLL,3511.09691,N,10643.26214,W,164622,A*3F
$HCHDG,49.3,,,8.7,E*18
$PASHR,164622000,57.99,T,+3.90,+70.49,+00.00,3.141,3.141,15.000,1,0*17
$GPGGA,164627,3511.13338,N,10643.29858,W,1,8,0.9,1649.6,M,46.9,M,0,2*56
$GPRMC,164627,A,3511.13338,N,10643.29858,W,33.80,320.4,311216,003.1,W*7D
$GPGLL,3511.13338,N,10643.29858,W,164627,A*3A
$HCHDG,49.3,,,8.7,E*18
$PASHR,164627000,57.99,T,+0.28,+68.33,+00.00,3.141,3.141,15.000,1,0*16
$GPGGA,164631,3511.16228,N,10643.32827,W,1,8,0.9,1650.9,M,46.9,M,0,2*51
$GPRMC,164631,A,3511.16228,N,10643.32827,W,34.64,320.4,311216,003.1,W*70
$GPGLL,3511.16228,N,10643.32827,W,164631,A*3A
$HCHDG,49.3,,,8.7,E*18
$PASHR,164631000,57.99,T,-0.62,+67.57,+00.00,3.141,3.141,15.000,1,0*14
$GPGGA,164638,3511.21236,N,10643.37861,W,1,8,0.9,1651.5,M,46.9,M,0,2*59
$GPRMC,164638,A,3511.21236,N,10643.37861,W,33.96,320.4,311216,003.1,W*7F
$GPGLL,3511.21236,N,10643.37861,W,164638,A*3F
$HCHDG,49.3,,,8.7,E*18
$PASHR,164638000,57.99,T,+2.83,+68.36,+00.00,3.141,3.141,15.000,1,0*1E
$GPGGA,164643,3511.24992,N,10643.41592,W,1,8,0.9,1651.0,M,46.9,M,0,2*50
$GPRMC,164643,A,3511.24992,N,10643.41592,W,34.37,320.4,311216,003.1,W*7F
$GPGLL,3511.24992,N,10643.41592,W,164643,A*33
$HCHDG,49.3,,,8.7,E*18
$PASHR,164643000,57.99,T,-1.49,+67.84,+00.00,3.141,3.141,15.000,1,0*17
$GPGGA,164649,3511.29346,N,10643.46200,W,1,8,0.9,1651.2,M,46.9,M,0,2*5D
$GPRMC,164649,A,3511.29346,N,10643.46200,W,34.81,316.0,311216,003.1,W*7C
$GPGLL,3511.29346,N,10643.46200,W,164649,A*3C
$HCHDG,40.1,,,8.7,E*13
$PASHR,164649000,48.81,T,+7.75,+68.47,+00.00,3.141,3.141,25.000,1,0*16
$GPGGA,164655,3511.32570,N,10643.51775,W,1,8,0.9,1652.8,M,46.9,M,0,2*51
$GPRMC,164655,A,3511.32570,N,10643.51775,W,32.75,294.3,311216,003.1,W*7C
$GPGLL,3511.32570,N,10643.51775,W,164655,A*39
$HCHDG,24.9,,,8.7,E*19
$PASHR,164655000,33.58,T,+12.16,+68.15,+00.00,3.141,3.141,25.000,1,0*25
$GPGGA,164659,3511.33867,N,10643.55766,W,1,8,0.9,1654.3,M,46.9,M,0,2*5C
$GPRMC,164659,A,3511.33867,N,10643.55766,W,29.55,284.8,311216,003.1,W*7E
$GPGLL,3511.33867,N,10643.55766,W,164659,A*39
$HCHDG,12.7,,,8.7,E*12
$PASHR,164659000,21.44,T,+2.30,+67.97,+00.00,3.141,3.141,30.000,1,0*13
$GPGGA,164705,3511.34624,N,10643.61091,W,1,8,0.9,1656.0,M,46.9,M,0,2*53
$GPRMC,164705,A,3511.34624,N,10643.61091,W,21.71,273.1,311216,003.1,W*7F
$GPGLL,3511.34624,N,10643.61091,W,164705,A*37
$HCHDG,3.7,,,8.7,E*22
$PASHR,164705000,12.40,T,+0.17,+62.35,+00.00,3.141,3.141,30.000,1,0*15
$GPGGA,164710,3511.35017,N,10643.64096,W,1,8,0.9,1655.9,M,46.9,M,0,2*58
$GPRMC,164710,A,3511.35017,N,10643.64096,W,13.80,270.2,311216,003.1,W*71
$GPGLL,3511.35017,N,10643.64096,W,164710,A*36
$HCHDG,15.8,,,8.7,E*1A
$PASHR,164710000,24.50,T,-10.53,+62.05,+00.00,3.141,3.141,30.000,1,0*21
$GPGGA,164715,3511.36120,N,10643.65119,W,1,8,0.9,1656.2,M,46.9,M,0,2*54
$GPRMC,164715,A,3511.36120,N,10643.65119,W,14.48,334.0,311216,003.1,W*75
$GPGLL,3511.36120,N,10643.65119,W,164715,A*32
$HCHDG,75.2,,,8.7,E*16
$PASHR,164715000,83.89,T,-38.31,+75.60,+00.00,3.141,3.141,30.000,1,0*26
$GPGGA,164720,3511.39064,N,10643.65408,W,1,8,0.9,1656.7,M,46.9,M,0,2*5C
$GPRMC,164720,A,3511.39064,N,10643.65408,W,27.29,0.3,311216,003.1,W*78
$GPGLL,3511.39064,N,10643.65408,W,164720,A*3F
$HCHDG,90.3,,,8.7,E*1C
$PASHR,164720000,99.01,T,+1.12,+69.95,+00.00,3.141,3.141,35.000,1,0*14
$GPGGA,164726,3511.43556,N,10643.65395,W,1,8,0.9,1656.1,M,46.9,M,0,2*56
$GPRMC,164726,A,3511.43556,N,10643.65395,W,25.21,0.1,311216,003.1,W*7C
$GPGLL,3511.43556,N,10643.65395,W,164726,A*33
$HCHDG,90.3,,,8.7,E*1C
$PASHR,164726000,99.01,T,+1.23,+65.06,+00.00,3.141,3.141,35.000,1,0*16
$GPGGA,164731,3511.46036,N,10643.65391,W,1,8,0.9,1655.1,M,46.9,M,0,2*51
$GPRMC,164731,A,3511.46036,N,10643.65391,W,11.68,42.5,311216,003.1,W*40
$GPGLL,3511.46036,N,10643.65391,W,164731,A*37
$HCHDG,126.7,,,8.7,E*24
$PASHR,164731000,135.35,T,-45.53,+59.54,+00.00,3.141,3.141,35.000,1,0*19
$GPGGA,164737,3511.46526,N,10643.62699,W,1,8,0.9,1656.0,M,46.9,M,0,2*5B
$GPRMC,164737,A,3511.46526,N,10643.62699,W,13.86,67.5,311216,003.1,W*4D
$GPGLL,3511.46526,N,10643.62699,W,164737,A*3F
$HCHDG,57.2,,,8.7,E*16
$PASHR,164737000,65.87,T,+14.24,+66.47,+00.00,3.141,3.141,25.000,1,0*2F
$GPGGA,164741,3511.47192,N,10643.61294,W,1,8,0.9,1655.5,M,46.9,M,0,2*5C
$GPRMC,164741,A,3511.47192,N,10643.61294,W,9.16,52.4,311216,003.1,W*79
$GPGLL,3511.47192,N,10643.61294,W,164741,A*3E
$HCHDG,38.8,,,8.7,E*15
$PASHR,164741000,47.47,T,+7.01,+56.94,+00.00,3.141,3.141,30.000,1,0*1E
$GPGGA,164747,3511.47439,N,10643.61186,W,1,8,0.9,1655.7,M,46.9,M,0,2*5C
$GPRMC,164747,A,3511.47439,N,10643.61186,W,0.00,50.3,311216,003.1,W*70
$GPGLL,3511.47439,N,10643.61186,W,164747,A*3C
$HCHDG,37.1,,,8.7,E*13
$PASHR,164747000,45.83,T,+6.07,+35.73,+00.00,3.141,3.141,20.000,1,0*18
